{
  "MADRID": {
    "C1": {
      "color": "75B6E0",
      "stops": [
        {
          "id": "17000",
          "name": "Madrid-Chamartín-Clara Campoamor",
          "lat": 40.4711789,
          "lon": -3.6829524,
          "distance_to_route": 0.036
        },
        {
          "id": "98003",
          "name": "Fuente De La Mora",
          "lat": 40.48472,
          "lon": -3.6630608,
          "distance_to_route": 0.058
        },
        {
          "id": "98304",
          "name": "Valdebebas",
          "lat": 40.4821016,
          "lon": -3.6162874,
          "distance_to_route": 0.639
        },
        {
          "id": "98305",
          "name": "Madrid-Aeropuerto T4",
          "lat": 40.4924023,
          "lon": -3.5932297,
          "distance_to_route": 0.021
        }
      ],
      "route_desc": "Principe Pio                            -Aeropuerto-T4"
    },
    "C10": {
      "color": "BCCF00",
      "stops": [
        {
          "id": "10200",
          "name": "Villalba De Guadarrama",
          "lat": 40.6264893,
          "lon": -4.0080301,
          "distance_to_route": 0.055
        },
        {
          "id": "10104",
          "name": "Galapagar-La Navata",
          "lat": 40.6003138,
          "lon": -3.982259,
          "distance_to_route": 0.015
        },
        {
          "id": "10103",
          "name": "Torrelodones",
          "lat": 40.574554,
          "lon": -3.9566013,
          "distance_to_route": 0.061
        },
        {
          "id": "10101",
          "name": "Las Matas",
          "lat": 40.5523869,
          "lon": -3.8967664,
          "distance_to_route": 0.577
        },
        {
          "id": "10100",
          "name": "Pinar De Las Rozas",
          "lat": 40.5222672,
          "lon": -3.8822477,
          "distance_to_route": 0.261
        },
        {
          "id": "10005",
          "name": "Las Rozas",
          "lat": 40.4942887,
          "lon": -3.8681747,
          "distance_to_route": 0.332
        },
        {
          "id": "10007",
          "name": "Majadahonda",
          "lat": 40.4742885,
          "lon": -3.8462931,
          "distance_to_route": 0.031
        },
        {
          "id": "10010",
          "name": "El Barrial-Centro Comercial Pozuelo",
          "lat": 40.4653918,
          "lon": -3.8076854,
          "distance_to_route": 0.22
        },
        {
          "id": "10002",
          "name": "Pozuelo",
          "lat": 40.4474569,
          "lon": -3.8002779,
          "distance_to_route": 0.044
        },
        {
          "id": "10001",
          "name": "Aravaca",
          "lat": 40.4484551,
          "lon": -3.7855547,
          "distance_to_route": 0.025
        },
        {
          "id": "10000",
          "name": "Madrid-Príncipe Pío",
          "lat": 40.4214895,
          "lon": -3.7189689,
          "distance_to_route": 0.023
        },
        {
          "id": "18005",
          "name": "Pirámides",
          "lat": 40.4025341,
          "lon": -3.7113623,
          "distance_to_route": 0.211
        },
        {
          "id": "35609",
          "name": "Embajadores",
          "lat": 40.4046484,
          "lon": -3.702579,
          "distance_to_route": 0.396
        },
        {
          "id": "18004",
          "name": "Delicias",
          "lat": 40.4004375,
          "lon": -3.6927766,
          "distance_to_route": 0.026
        },
        {
          "id": "18003",
          "name": "Méndez álvaro P.v.",
          "lat": 40.3957768,
          "lon": -3.677844,
          "distance_to_route": 0.021
        },
        {
          "id": "18000",
          "name": "Madrid-Atocha Cercanías",
          "lat": 40.4066191,
          "lon": -3.6894391,
          "distance_to_route": 0.112
        },
        {
          "id": "18101",
          "name": "Sol",
          "lat": 40.4168665,
          "lon": -3.7028765,
          "distance_to_route": 0.75
        },
        {
          "id": "18001",
          "name": "Madrid-Recoletos",
          "lat": 40.4233731,
          "lon": -3.690931,
          "distance_to_route": 0.154
        },
        {
          "id": "18002",
          "name": "Madrid-Nuevos Ministerios",
          "lat": 40.4466271,
          "lon": -3.6923468,
          "distance_to_route": 0.265
        },
        {
          "id": "17000",
          "name": "Madrid-Chamartín-Clara Campoamor",
          "lat": 40.4711789,
          "lon": -3.6829524,
          "distance_to_route": 0.053
        }
      ],
      "route_desc": "Villalba                                -Aeropuerto-T4"
    },
    "C2": {
      "color": "00943D",
      "stops": [
        {
          "id": "17000",
          "name": "Madrid-Chamartín-Clara Campoamor",
          "lat": 40.4711789,
          "lon": -3.6829524,
          "distance_to_route": 0.049
        },
        {
          "id": "18002",
          "name": "Madrid-Nuevos Ministerios",
          "lat": 40.4466271,
          "lon": -3.6923468,
          "distance_to_route": 0.265
        },
        {
          "id": "18001",
          "name": "Madrid-Recoletos",
          "lat": 40.4233731,
          "lon": -3.690931,
          "distance_to_route": 0.154
        },
        {
          "id": "18101",
          "name": "Sol",
          "lat": 40.4168665,
          "lon": -3.7028765,
          "distance_to_route": 0.751
        },
        {
          "id": "18000",
          "name": "Madrid-Atocha Cercanías",
          "lat": 40.4066191,
          "lon": -3.6894391,
          "distance_to_route": 0.099
        },
        {
          "id": "18004",
          "name": "Delicias",
          "lat": 40.4004375,
          "lon": -3.6927766,
          "distance_to_route": 0.666
        },
        {
          "id": "18003",
          "name": "Méndez álvaro P.v.",
          "lat": 40.3957768,
          "lon": -3.677844,
          "distance_to_route": 0.315
        },
        {
          "id": "70002",
          "name": "Asamblea De Madrid-Entrevías",
          "lat": 40.3818618,
          "lon": -3.6680454,
          "distance_to_route": 0.059
        },
        {
          "id": "70003",
          "name": "El Pozo",
          "lat": 40.3760377,
          "lon": -3.6561407,
          "distance_to_route": 0.02
        },
        {
          "id": "70001",
          "name": "Vallecas",
          "lat": 40.3819607,
          "lon": -3.6245835,
          "distance_to_route": 0.127
        },
        {
          "id": "70109",
          "name": "Santa Eugenia",
          "lat": 40.3869545,
          "lon": -3.6089855,
          "distance_to_route": 0.021
        },
        {
          "id": "70100",
          "name": "Vicálvaro",
          "lat": 40.4012524,
          "lon": -3.595897,
          "distance_to_route": 0.058
        },
        {
          "id": "70108",
          "name": "Coslada",
          "lat": 40.423237,
          "lon": -3.5611109,
          "distance_to_route": 0.04
        },
        {
          "id": "70101",
          "name": "San Fernando De Henares",
          "lat": 40.4427805,
          "lon": -3.5339866,
          "distance_to_route": 0.012
        },
        {
          "id": "70112",
          "name": "Soto Del Henares",
          "lat": 40.463964,
          "lon": -3.4414076,
          "distance_to_route": 0.369
        },
        {
          "id": "70111",
          "name": "La Garena",
          "lat": 40.4805448,
          "lon": -3.3930055,
          "distance_to_route": 0.198
        },
        {
          "id": "70103",
          "name": "Alcalá De Henares",
          "lat": 40.4890814,
          "lon": -3.3662457,
          "distance_to_route": 0.19
        },
        {
          "id": "70107",
          "name": "Alcalá De Henares-Universidad",
          "lat": 40.5054303,
          "lon": -3.3353258,
          "distance_to_route": 0.074
        },
        {
          "id": "70104",
          "name": "Meco",
          "lat": 40.5346731,
          "lon": -3.2986806,
          "distance_to_route": 0.508
        },
        {
          "id": "70105",
          "name": "Azuqueca",
          "lat": 40.561077,
          "lon": -3.265397,
          "distance_to_route": 0.066
        },
        {
          "id": "70200",
          "name": "Guadalajara",
          "lat": 40.6441928,
          "lon": -3.1822602,
          "distance_to_route": 0.117
        }
      ],
      "route_desc": "Guadalajara                             -Chamartín - Clara Campoamor"
    },
    "C3": {
      "color": "952585",
      "stops": [
        {
          "id": "60200",
          "name": "Aranjuez",
          "lat": 40.0350257,
          "lon": -3.6182534,
          "distance_to_route": 0.063
        },
        {
          "id": "60105",
          "name": "Ciempozuelos",
          "lat": 40.1592011,
          "lon": -3.6101851,
          "distance_to_route": 0.11
        },
        {
          "id": "60104",
          "name": "Valdemoro",
          "lat": 40.1960779,
          "lon": -3.6649372,
          "distance_to_route": 0.244
        },
        {
          "id": "60103",
          "name": "Pinto",
          "lat": 40.2428555,
          "lon": -3.7035303,
          "distance_to_route": 0.197
        },
        {
          "id": "60102",
          "name": "Getafe-Industrial",
          "lat": 40.3057176,
          "lon": -3.7078359,
          "distance_to_route": 0.451
        },
        {
          "id": "60109",
          "name": "El Casar",
          "lat": 40.3185223,
          "lon": -3.7098062,
          "distance_to_route": 0.048
        },
        {
          "id": "60101",
          "name": "San Cristóbal Industrial",
          "lat": 40.3318587,
          "lon": -3.69896,
          "distance_to_route": 0.058
        },
        {
          "id": "60107",
          "name": "San Cristóbal De Los ángeles",
          "lat": 40.3424144,
          "lon": -3.6839795,
          "distance_to_route": 0.039
        },
        {
          "id": "60100",
          "name": "Madrid-Villaverde Bajo",
          "lat": 40.3526762,
          "lon": -3.6838977,
          "distance_to_route": 0.099
        },
        {
          "id": "70002",
          "name": "Asamblea De Madrid-Entrevías",
          "lat": 40.3818618,
          "lon": -3.6680454,
          "distance_to_route": 0.918
        },
        {
          "id": "18003",
          "name": "Méndez álvaro P.v.",
          "lat": 40.3957768,
          "lon": -3.677844,
          "distance_to_route": 0.272
        },
        {
          "id": "18004",
          "name": "Delicias",
          "lat": 40.4004375,
          "lon": -3.6927766,
          "distance_to_route": 0.649
        },
        {
          "id": "18000",
          "name": "Madrid-Atocha Cercanías",
          "lat": 40.4066191,
          "lon": -3.6894391,
          "distance_to_route": 0.04
        },
        {
          "id": "35609",
          "name": "Embajadores",
          "lat": 40.4046484,
          "lon": -3.702579,
          "distance_to_route": 0.88
        },
        {
          "id": "18101",
          "name": "Sol",
          "lat": 40.4168665,
          "lon": -3.7028765,
          "distance_to_route": 0.04
        },
        {
          "id": "18001",
          "name": "Madrid-Recoletos",
          "lat": 40.4233731,
          "lon": -3.690931,
          "distance_to_route": 0.599
        },
        {
          "id": "18002",
          "name": "Madrid-Nuevos Ministerios",
          "lat": 40.4466271,
          "lon": -3.6923468,
          "distance_to_route": 0.084
        },
        {
          "id": "17000",
          "name": "Madrid-Chamartín-Clara Campoamor",
          "lat": 40.4711789,
          "lon": -3.6829524,
          "distance_to_route": 0.067
        }
      ],
      "route_desc": "Chamartín - Clara Campoamor             -Aranjuez"
    },
    "C4": {
      "color": "2C2A86",
      "stops": [
        {
          "id": "37012",
          "name": "Parla",
          "lat": 40.2410986,
          "lon": -3.7692699,
          "distance_to_route": 0.038
        },
        {
          "id": "37011",
          "name": "Getafe-Sector 3",
          "lat": 40.2883893,
          "lon": -3.7374991,
          "distance_to_route": 0.759
        },
        {
          "id": "37002",
          "name": "Getafe-Centro",
          "lat": 40.3100045,
          "lon": -3.7339878,
          "distance_to_route": 0.285
        },
        {
          "id": "37010",
          "name": "Las Margaritas",
          "lat": 40.3230989,
          "lon": -3.7272863,
          "distance_to_route": 0.918
        },
        {
          "id": "37001",
          "name": "Madrid-Villaverde Alto",
          "lat": 40.3415895,
          "lon": -3.7123508,
          "distance_to_route": 0.262
        },
        {
          "id": "35704",
          "name": "Puente Alcocer",
          "lat": 40.3504482,
          "lon": -3.7051154,
          "distance_to_route": 0.919
        },
        {
          "id": "60107",
          "name": "San Cristóbal De Los ángeles",
          "lat": 40.3424144,
          "lon": -3.6839795,
          "distance_to_route": 0.622
        },
        {
          "id": "60100",
          "name": "Madrid-Villaverde Bajo",
          "lat": 40.3526762,
          "lon": -3.6838977,
          "distance_to_route": 0.017
        },
        {
          "id": "70002",
          "name": "Asamblea De Madrid-Entrevías",
          "lat": 40.3818618,
          "lon": -3.6680454,
          "distance_to_route": 0.917
        },
        {
          "id": "18003",
          "name": "Méndez álvaro P.v.",
          "lat": 40.3957768,
          "lon": -3.677844,
          "distance_to_route": 0.273
        },
        {
          "id": "18004",
          "name": "Delicias",
          "lat": 40.4004375,
          "lon": -3.6927766,
          "distance_to_route": 0.649
        },
        {
          "id": "18000",
          "name": "Madrid-Atocha Cercanías",
          "lat": 40.4066191,
          "lon": -3.6894391,
          "distance_to_route": 0.04
        },
        {
          "id": "35609",
          "name": "Embajadores",
          "lat": 40.4046484,
          "lon": -3.702579,
          "distance_to_route": 0.88
        },
        {
          "id": "18101",
          "name": "Sol",
          "lat": 40.4168665,
          "lon": -3.7028765,
          "distance_to_route": 0.04
        },
        {
          "id": "18001",
          "name": "Madrid-Recoletos",
          "lat": 40.4233731,
          "lon": -3.690931,
          "distance_to_route": 0.599
        },
        {
          "id": "18002",
          "name": "Madrid-Nuevos Ministerios",
          "lat": 40.4466271,
          "lon": -3.6923468,
          "distance_to_route": 0.084
        },
        {
          "id": "17000",
          "name": "Madrid-Chamartín-Clara Campoamor",
          "lat": 40.4711789,
          "lon": -3.6829524,
          "distance_to_route": 0.043
        },
        {
          "id": "17001",
          "name": "Fuencarral",
          "lat": 40.5015603,
          "lon": -3.6825042,
          "distance_to_route": 0.296
        },
        {
          "id": "17009",
          "name": "Universidad-Cantoblanco",
          "lat": 40.5438416,
          "lon": -3.7001551,
          "distance_to_route": 0.019
        }
      ],
      "route_desc": "Chamartín - Clara Campoamor             -Parla"
    },
    "C4a": {
      "color": "2C2A86",
      "stops": [
        {
          "id": "17009",
          "name": "Universidad-Cantoblanco",
          "lat": 40.5438416,
          "lon": -3.7001551,
          "distance_to_route": 0.017
        },
        {
          "id": "19001",
          "name": "Universidad Pontificia De Comillas",
          "lat": 40.5539697,
          "lon": -3.6836997,
          "distance_to_route": 0.216
        },
        {
          "id": "19002",
          "name": "Valdelasfuentes",
          "lat": 40.5474339,
          "lon": -3.6543237,
          "distance_to_route": 0.086
        },
        {
          "id": "19003",
          "name": "Alcobendas-San Sebastián De Los Reyes",
          "lat": 40.5465765,
          "lon": -3.6351731,
          "distance_to_route": 0.039
        }
      ],
      "route_desc": "Alcobendas-S.Sebast. de los Reyes       -Parla"
    },
    "C4b": {
      "color": "2C2A86",
      "stops": [
        {
          "id": "17005",
          "name": "Colmenar Viejo",
          "lat": 40.6452094,
          "lon": -3.7766142,
          "distance_to_route": 0.05
        },
        {
          "id": "17004",
          "name": "Tres Cantos",
          "lat": 40.5987417,
          "lon": -3.7155585,
          "distance_to_route": 0.039
        },
        {
          "id": "17003",
          "name": "El Goloso",
          "lat": 40.5588966,
          "lon": -3.7139714,
          "distance_to_route": 0.131
        },
        {
          "id": "17009",
          "name": "Universidad-Cantoblanco",
          "lat": 40.5438416,
          "lon": -3.7001551,
          "distance_to_route": 0.019
        }
      ],
      "route_desc": "Colmenar Viejo                          -Parla"
    },
    "C5": {
      "color": "FECB00",
      "stops": [
        {
          "id": "35607",
          "name": "Móstoles-El Soto",
          "lat": 40.331064,
          "lon": -3.882456,
          "distance_to_route": 0.075
        },
        {
          "id": "35606",
          "name": "Móstoles",
          "lat": 40.3286626,
          "lon": -3.8636221,
          "distance_to_route": 0.089
        },
        {
          "id": "35610",
          "name": "Las Retamas",
          "lat": 40.3421153,
          "lon": -3.8424636,
          "distance_to_route": 0.461
        },
        {
          "id": "35605",
          "name": "Alcorcón",
          "lat": 40.3502269,
          "lon": -3.8317018,
          "distance_to_route": 0.144
        },
        {
          "id": "35604",
          "name": "San José De Valderas",
          "lat": 40.356613,
          "lon": -3.815573,
          "distance_to_route": 0.016
        },
        {
          "id": "35603",
          "name": "Cuatro Vientos",
          "lat": 40.3777651,
          "lon": -3.79151,
          "distance_to_route": 0.162
        },
        {
          "id": "35602",
          "name": "Las águilas",
          "lat": 40.381022,
          "lon": -3.7801636,
          "distance_to_route": 0.236
        },
        {
          "id": "35601",
          "name": "Maestra Justa Freire-Polidep. Aluche",
          "lat": 40.3836379,
          "lon": -3.7686869,
          "distance_to_route": 0.357
        },
        {
          "id": "35600",
          "name": "Aluche",
          "lat": 40.3856677,
          "lon": -3.7607343,
          "distance_to_route": 0.162
        },
        {
          "id": "35608",
          "name": "Laguna",
          "lat": 40.3990603,
          "lon": -3.7442305,
          "distance_to_route": 0.869
        },
        {
          "id": "18005",
          "name": "Pirámides",
          "lat": 40.4025341,
          "lon": -3.7113623,
          "distance_to_route": 0.444
        },
        {
          "id": "35609",
          "name": "Embajadores",
          "lat": 40.4046484,
          "lon": -3.702579,
          "distance_to_route": 0.048
        },
        {
          "id": "18000",
          "name": "Madrid-Atocha Cercanías",
          "lat": 40.4066191,
          "lon": -3.6894391,
          "distance_to_route": 0.038
        },
        {
          "id": "18004",
          "name": "Delicias",
          "lat": 40.4004375,
          "lon": -3.6927766,
          "distance_to_route": 0.715
        },
        {
          "id": "18003",
          "name": "Méndez álvaro P.v.",
          "lat": 40.3957768,
          "lon": -3.677844,
          "distance_to_route": 0.021
        },
        {
          "id": "35702",
          "name": "Doce De Octubre",
          "lat": 40.378921,
          "lon": -3.6986988,
          "distance_to_route": 0.093
        },
        {
          "id": "35703",
          "name": "Orcasitas",
          "lat": 40.3671021,
          "lon": -3.7042307,
          "distance_to_route": 0.067
        },
        {
          "id": "35704",
          "name": "Puente Alcocer",
          "lat": 40.3504482,
          "lon": -3.7051154,
          "distance_to_route": 0.211
        },
        {
          "id": "37001",
          "name": "Madrid-Villaverde Alto",
          "lat": 40.3415895,
          "lon": -3.7123508,
          "distance_to_route": 0.304
        },
        {
          "id": "35009",
          "name": "Zarzaquemada",
          "lat": 40.3408526,
          "lon": -3.7482632,
          "distance_to_route": 0.036
        },
        {
          "id": "35001",
          "name": "Leganés",
          "lat": 40.328643,
          "lon": -3.7713161,
          "distance_to_route": 0.397
        },
        {
          "id": "35011",
          "name": "Parque Polvoranca",
          "lat": 40.3125738,
          "lon": -3.7834937,
          "distance_to_route": 0.199
        },
        {
          "id": "35010",
          "name": "La Serna-Fuenlabrada",
          "lat": 40.2968173,
          "lon": -3.7926235,
          "distance_to_route": 0.016
        },
        {
          "id": "35002",
          "name": "Fuenlabrada",
          "lat": 40.2833784,
          "lon": -3.7994429,
          "distance_to_route": 0.043
        },
        {
          "id": "35012",
          "name": "Humanes",
          "lat": 40.2558101,
          "lon": -3.8287055,
          "distance_to_route": 0.032
        }
      ],
      "route_desc": "Mostoles el Soto                        -Humanes"
    },
    "C7": {
      "color": "E5202A",
      "stops": [
        {
          "id": "70103",
          "name": "Alcalá De Henares",
          "lat": 40.4890814,
          "lon": -3.3662457,
          "distance_to_route": 0.041
        },
        {
          "id": "70111",
          "name": "La Garena",
          "lat": 40.4805448,
          "lon": -3.3930055,
          "distance_to_route": 0.198
        },
        {
          "id": "70112",
          "name": "Soto Del Henares",
          "lat": 40.463964,
          "lon": -3.4414076,
          "distance_to_route": 0.369
        },
        {
          "id": "70101",
          "name": "San Fernando De Henares",
          "lat": 40.4427805,
          "lon": -3.5339866,
          "distance_to_route": 0.012
        },
        {
          "id": "70108",
          "name": "Coslada",
          "lat": 40.423237,
          "lon": -3.5611109,
          "distance_to_route": 0.04
        },
        {
          "id": "70100",
          "name": "Vicálvaro",
          "lat": 40.4012524,
          "lon": -3.595897,
          "distance_to_route": 0.08
        },
        {
          "id": "70109",
          "name": "Santa Eugenia",
          "lat": 40.3869545,
          "lon": -3.6089855,
          "distance_to_route": 0.021
        },
        {
          "id": "70001",
          "name": "Vallecas",
          "lat": 40.3819607,
          "lon": -3.6245835,
          "distance_to_route": 0.127
        },
        {
          "id": "70003",
          "name": "El Pozo",
          "lat": 40.3760377,
          "lon": -3.6561407,
          "distance_to_route": 0.017
        },
        {
          "id": "70002",
          "name": "Asamblea De Madrid-Entrevías",
          "lat": 40.3818618,
          "lon": -3.6680454,
          "distance_to_route": 0.042
        },
        {
          "id": "18003",
          "name": "Méndez álvaro P.v.",
          "lat": 40.3957768,
          "lon": -3.677844,
          "distance_to_route": 0.321
        },
        {
          "id": "18004",
          "name": "Delicias",
          "lat": 40.4004375,
          "lon": -3.6927766,
          "distance_to_route": 0.666
        },
        {
          "id": "18000",
          "name": "Madrid-Atocha Cercanías",
          "lat": 40.4066191,
          "lon": -3.6894391,
          "distance_to_route": 0.091
        },
        {
          "id": "18101",
          "name": "Sol",
          "lat": 40.4168665,
          "lon": -3.7028765,
          "distance_to_route": 0.75
        },
        {
          "id": "18001",
          "name": "Madrid-Recoletos",
          "lat": 40.4233731,
          "lon": -3.690931,
          "distance_to_route": 0.154
        },
        {
          "id": "18002",
          "name": "Madrid-Nuevos Ministerios",
          "lat": 40.4466271,
          "lon": -3.6923468,
          "distance_to_route": 0.265
        },
        {
          "id": "17000",
          "name": "Madrid-Chamartín-Clara Campoamor",
          "lat": 40.4711789,
          "lon": -3.6829524,
          "distance_to_route": 0.03
        },
        {
          "id": "97201",
          "name": "Madrid-Ramón Y Cajal",
          "lat": 40.4881473,
          "lon": -3.6948037,
          "distance_to_route": 0.023
        },
        {
          "id": "97200",
          "name": "Mirasierra-Paco De Lucía",
          "lat": 40.499759,
          "lon": -3.7092505,
          "distance_to_route": 0.027
        },
        {
          "id": "97100",
          "name": "Pitis",
          "lat": 40.4954173,
          "lon": -3.7261603,
          "distance_to_route": 0.151
        },
        {
          "id": "10005",
          "name": "Las Rozas",
          "lat": 40.4942887,
          "lon": -3.8681747,
          "distance_to_route": 0.324
        },
        {
          "id": "10007",
          "name": "Majadahonda",
          "lat": 40.4742885,
          "lon": -3.8462931,
          "distance_to_route": 0.031
        },
        {
          "id": "10010",
          "name": "El Barrial-Centro Comercial Pozuelo",
          "lat": 40.4653918,
          "lon": -3.8076854,
          "distance_to_route": 0.22
        },
        {
          "id": "10002",
          "name": "Pozuelo",
          "lat": 40.4474569,
          "lon": -3.8002779,
          "distance_to_route": 0.02
        },
        {
          "id": "10001",
          "name": "Aravaca",
          "lat": 40.4484551,
          "lon": -3.7855547,
          "distance_to_route": 0.025
        },
        {
          "id": "10000",
          "name": "Madrid-Príncipe Pío",
          "lat": 40.4214895,
          "lon": -3.7189689,
          "distance_to_route": 0.034
        }
      ],
      "route_desc": "Principe Pio                            -Chamartín - Clara Campoamor"
    },
    "C9": {
      "color": "F3972A",
      "stops": [
        {
          "id": "12006",
          "name": "Cercedilla",
          "lat": 40.7376129,
          "lon": -4.0662985,
          "distance_to_route": 0.045
        },
        {
          "id": "12020",
          "name": "Puerto De Navacerrada",
          "lat": 40.7844678,
          "lon": -4.0047744,
          "distance_to_route": 0.048
        },
        {
          "id": "12023",
          "name": "Los Cotos",
          "lat": 40.8223419,
          "lon": -3.9644961,
          "distance_to_route": 0.012
        }
      ],
      "route_desc": "Cercedilla                              -Cotos"
    }
  },
  "SEVILLA": {
    "C1": {
      "color": "78B4E1",
      "stops": [
        {
          "id": "50600",
          "name": "Lora Del Río",
          "lat": 37.6613212,
          "lon": -5.5295514
        },
        {
          "id": "50602",
          "name": "Guadajoz",
          "lat": 37.5814594,
          "lon": -5.6699795
        },
        {
          "id": "50700",
          "name": "Los Rosales",
          "lat": 37.5899718,
          "lon": -5.7261208
        },
        {
          "id": "50701",
          "name": "Cantillana",
          "lat": 37.5749689,
          "lon": -5.8032073
        },
        {
          "id": "50702",
          "name": "Brenes",
          "lat": 37.5463276,
          "lon": -5.8667821
        },
        {
          "id": "50704",
          "name": "El Cáñamo",
          "lat": 37.4863952,
          "lon": -5.932975
        },
        {
          "id": "50703",
          "name": "La Rinconada",
          "lat": 37.4800897,
          "lon": -5.940119
        },
        {
          "id": "51003",
          "name": "Sevilla-Santa Justa",
          "lat": 37.3924955,
          "lon": -5.9749269
        },
        {
          "id": "51100",
          "name": "San Bernardo",
          "lat": 37.3777778,
          "lon": -5.9796142
        },
        {
          "id": "51110",
          "name": "Virgen Del Rocío",
          "lat": 37.3628091,
          "lon": -5.9760105
        },
        {
          "id": "51113",
          "name": "Jardines De Hércules",
          "lat": 37.3328527,
          "lon": -5.964094
        },
        {
          "id": "51111",
          "name": "Bellavista",
          "lat": 37.3215188,
          "lon": -5.9641924
        },
        {
          "id": "51103",
          "name": "Dos Hermanas",
          "lat": 37.2872259,
          "lon": -5.9235322
        },
        {
          "id": "51112",
          "name": "Cantaelgallo",
          "lat": 37.2782197,
          "lon": -5.9104397
        },
        {
          "id": "51200",
          "name": "Utrera",
          "lat": 37.1848178,
          "lon": -5.7907537
        },
        {
          "id": "51202",
          "name": "Las Cabezas De San Juan",
          "lat": 37.0194897,
          "lon": -5.94658
        },
        {
          "id": "51203",
          "name": "Lebrija",
          "lat": 36.9116378,
          "lon": -6.0948487
        }
      ],
      "route_desc": "Lora del Rio                            -Lebrija"
    },
    "C2": {
      "color": "067B34",
      "stops": [
        {
          "id": "51003",
          "name": "Sevilla-Santa Justa",
          "lat": 37.3924955,
          "lon": -5.9749269
        },
        {
          "id": "43000",
          "name": "San Jerónimo",
          "lat": 37.433173,
          "lon": -5.98036
        },
        {
          "id": "51051",
          "name": "Estadio Olímpico",
          "lat": 37.4174307,
          "lon": -6.007496
        },
        {
          "id": "51050",
          "name": "Cartuja",
          "lat": 37.4074574,
          "lon": -6.0101856
        }
      ],
      "route_desc": "Santa Justa                             -Cartuja"
    },
    "C3": {
      "color": "E4242D",
      "stops": [
        {
          "id": "51003",
          "name": "Sevilla-Santa Justa",
          "lat": 37.3924955,
          "lon": -5.9749269
        },
        {
          "id": "50703",
          "name": "La Rinconada",
          "lat": 37.4800897,
          "lon": -5.940119
        },
        {
          "id": "50704",
          "name": "El Cáñamo",
          "lat": 37.4863952,
          "lon": -5.932975
        },
        {
          "id": "50702",
          "name": "Brenes",
          "lat": 37.5463276,
          "lon": -5.8667821
        },
        {
          "id": "50701",
          "name": "Cantillana",
          "lat": 37.5749689,
          "lon": -5.8032073
        },
        {
          "id": "50700",
          "name": "Los Rosales",
          "lat": 37.5899718,
          "lon": -5.7261208
        },
        {
          "id": "40122",
          "name": "Tocina",
          "lat": 37.6093044,
          "lon": -5.7316939
        },
        {
          "id": "40121",
          "name": "Alcolea Del Río",
          "lat": 37.6354557,
          "lon": -5.7308309
        },
        {
          "id": "40119",
          "name": "Villanueva Del Río-Minas",
          "lat": 37.6617048,
          "lon": -5.7121543
        },
        {
          "id": "40115",
          "name": "Pedroso",
          "lat": 37.8373919,
          "lon": -5.7624522
        },
        {
          "id": "40113",
          "name": "Cazalla-Constantina",
          "lat": 37.9328637,
          "lon": -5.704433
        }
      ],
      "route_desc": "Santa Justa                             -Cazalla-Constantina"
    },
    "C4": {
      "color": "8E2182",
      "stops": [
        {
          "id": "51003",
          "name": "Sevilla-Santa Justa",
          "lat": 37.3924955,
          "lon": -5.9749269
        },
        {
          "id": "51009",
          "name": "Palacio De Congresos",
          "lat": 37.4036456,
          "lon": -5.9362636
        },
        {
          "id": "51010",
          "name": "Padre Pío-Palmete",
          "lat": 37.370852,
          "lon": -5.9394111
        },
        {
          "id": "51110",
          "name": "Virgen Del Rocío",
          "lat": 37.3628091,
          "lon": -5.9760105
        },
        {
          "id": "51100",
          "name": "San Bernardo",
          "lat": 37.3777778,
          "lon": -5.9796142
        },
        {
          "id": "51003",
          "name": "Sevilla-Santa Justa",
          "lat": 37.3924955,
          "lon": -5.9749269
        }
      ],
      "route_desc": "Santa Justa                             -Santa Justa"
    },
    "C5": {
      "color": "073588",
      "stops": [
        {
          "id": "51103",
          "name": "Dos Hermanas",
          "lat": 37.2872259,
          "lon": -5.9235322
        },
        {
          "id": "51111",
          "name": "Bellavista",
          "lat": 37.3215188,
          "lon": -5.9641924
        },
        {
          "id": "51113",
          "name": "Jardines De Hércules",
          "lat": 37.3328527,
          "lon": -5.964094
        },
        {
          "id": "51110",
          "name": "Virgen Del Rocío",
          "lat": 37.3628091,
          "lon": -5.9760105
        },
        {
          "id": "51100",
          "name": "San Bernardo",
          "lat": 37.3777778,
          "lon": -5.9796142
        },
        {
          "id": "51003",
          "name": "Sevilla-Santa Justa",
          "lat": 37.3924955,
          "lon": -5.9749269
        },
        {
          "id": "43000",
          "name": "San Jerónimo",
          "lat": 37.433173,
          "lon": -5.98036
        },
        {
          "id": "43002",
          "name": "Camas",
          "lat": 37.4177385,
          "lon": -6.0408469
        },
        {
          "id": "43026",
          "name": "Valencina-Santiponce",
          "lat": 37.4268127,
          "lon": -6.0566858
        },
        {
          "id": "43027",
          "name": "Salteras",
          "lat": 37.4102348,
          "lon": -6.0992391
        },
        {
          "id": "43003",
          "name": "Villanueva Del Ariscal Y Olivares",
          "lat": 37.4071375,
          "lon": -6.1481895
        },
        {
          "id": "43004",
          "name": "Sanlúcar La Mayor",
          "lat": 37.3814397,
          "lon": -6.1939625
        },
        {
          "id": "43005",
          "name": "Benacazón",
          "lat": 37.3568512,
          "lon": -6.2082011
        }
      ],
      "route_desc": "Jardines de Hercules                    -Benacazon"
    }
  },
  "MÁLAGA": {
    "C1": {
      "color": "4a8ccc",
      "stops": [
        {
          "id": "54516",
          "name": "Fuengirola",
          "lat": 36.5418947,
          "lon": -4.623858,
          "distance_to_route": 0.035
        },
        {
          "id": "54515",
          "name": "Los Boliches",
          "lat": 36.5546583,
          "lon": -4.6145767,
          "distance_to_route": 0.134
        },
        {
          "id": "54514",
          "name": "Torreblanca Del Sol",
          "lat": 36.5649071,
          "lon": -4.6067106,
          "distance_to_route": 0.034
        },
        {
          "id": "54513",
          "name": "Carvajal",
          "lat": 36.570259,
          "lon": -4.5940491,
          "distance_to_route": 0.126
        },
        {
          "id": "54512",
          "name": "Torremuelle",
          "lat": 36.5822966,
          "lon": -4.5670183,
          "distance_to_route": 0.059
        },
        {
          "id": "54511",
          "name": "Benalmádena-Arroyo De La Miel",
          "lat": 36.5991116,
          "lon": -4.5363459,
          "distance_to_route": 0.048
        },
        {
          "id": "54510",
          "name": "El Pinillo",
          "lat": 36.6098688,
          "lon": -4.5153735,
          "distance_to_route": 0.13
        },
        {
          "id": "54519",
          "name": "Montemar Alto",
          "lat": 36.6136673,
          "lon": -4.5094259,
          "distance_to_route": 0.063
        },
        {
          "id": "54509",
          "name": "Torremolinos",
          "lat": 36.6225596,
          "lon": -4.49957,
          "distance_to_route": 0.078
        },
        {
          "id": "54508",
          "name": "La Colina",
          "lat": 36.6419236,
          "lon": -4.4926383,
          "distance_to_route": 0.011
        },
        {
          "id": "54518",
          "name": "Los álamos",
          "lat": 36.6450587,
          "lon": -4.4851186,
          "distance_to_route": 0.008
        },
        {
          "id": "54520",
          "name": "Plaza Mayor",
          "lat": 36.6562029,
          "lon": -4.4803044,
          "distance_to_route": 0.005
        },
        {
          "id": "54505",
          "name": "Málaga-Aeropuerto",
          "lat": 36.6777169,
          "lon": -4.4901607,
          "distance_to_route": 0.078
        },
        {
          "id": "54503",
          "name": "Guadalhorce",
          "lat": 36.6920757,
          "lon": -4.4836844,
          "distance_to_route": 0.097
        },
        {
          "id": "54412",
          "name": "Málaga-Los Prados",
          "lat": 36.6986108,
          "lon": -4.47815,
          "distance_to_route": 0.413
        },
        {
          "id": "54501",
          "name": "Victoria Kent",
          "lat": 36.7012229,
          "lon": -4.4544145,
          "distance_to_route": 0.458
        },
        {
          "id": "54500",
          "name": "Málaga M.z. Cercanías",
          "lat": 36.7113885,
          "lon": -4.4328909,
          "distance_to_route": 0.037
        },
        {
          "id": "54517",
          "name": "Málaga-Centro Alameda",
          "lat": 36.7159539,
          "lon": -4.4265335,
          "distance_to_route": 0.066
        }
      ],
      "route_desc": "Málaga-Centro Alameda                   -Fuengirola"
    },
    "C2": {
      "color": "0fcf34",
      "stops": [
        {
          "id": "54517",
          "name": "Málaga-Centro Alameda",
          "lat": 36.7159539,
          "lon": -4.4265335,
          "distance_to_route": 0.066
        },
        {
          "id": "54500",
          "name": "Málaga M.z. Cercanías",
          "lat": 36.7113885,
          "lon": -4.4328909,
          "distance_to_route": 0.037
        },
        {
          "id": "54501",
          "name": "Victoria Kent",
          "lat": 36.7012229,
          "lon": -4.4544145,
          "distance_to_route": 0.458
        },
        {
          "id": "54412",
          "name": "Málaga-Los Prados",
          "lat": 36.6986108,
          "lon": -4.47815,
          "distance_to_route": 0.072
        },
        {
          "id": "54503",
          "name": "Guadalhorce",
          "lat": 36.6920757,
          "lon": -4.4836844,
          "distance_to_route": 0.861
        },
        {
          "id": "54410",
          "name": "Campanillas",
          "lat": 36.7050436,
          "lon": -4.5454825,
          "distance_to_route": 0.065
        },
        {
          "id": "54408",
          "name": "Cártama",
          "lat": 36.7337392,
          "lon": -4.6083966,
          "distance_to_route": 0.065
        },
        {
          "id": "54407",
          "name": "Aljaima",
          "lat": 36.7330833,
          "lon": -4.6645001,
          "distance_to_route": 0.377
        },
        {
          "id": "54406",
          "name": "Pizarra",
          "lat": 36.7641515,
          "lon": -4.7118313,
          "distance_to_route": 0.14
        },
        {
          "id": "54405",
          "name": "álora",
          "lat": 36.8198747,
          "lon": -4.6996105,
          "distance_to_route": 0.018
        }
      ],
      "route_desc": "Málaga-Centro Alameda                   -Álora"
    }
  },
  "VALENCIA": {
    "C1": {
      "color": "7AB3DE",
      "stops": [
        {
          "id": "69110",
          "name": "Gandia",
          "lat": 38.970514,
          "lon": -0.1797829,
          "distance_to_route": 0.03
        },
        {
          "id": "69107",
          "name": "Xeraco",
          "lat": 39.0261489,
          "lon": -0.2150346,
          "distance_to_route": 0.193
        },
        {
          "id": "69105",
          "name": "Tavernes De La Valldigna",
          "lat": 39.0790438,
          "lon": -0.2262966,
          "distance_to_route": 0.148
        },
        {
          "id": "69104",
          "name": "Cullera",
          "lat": 39.1778885,
          "lon": -0.2632437,
          "distance_to_route": 0.139
        },
        {
          "id": "69103",
          "name": "Sueca",
          "lat": 39.2058471,
          "lon": -0.3082388,
          "distance_to_route": 0.12
        },
        {
          "id": "69102",
          "name": "Sollana",
          "lat": 39.2793471,
          "lon": -0.3793139,
          "distance_to_route": 0.053
        },
        {
          "id": "69101",
          "name": "El Romaní",
          "lat": 39.3029789,
          "lon": -0.3942354,
          "distance_to_route": 0.014
        },
        {
          "id": "64200",
          "name": "Silla",
          "lat": 39.3619548,
          "lon": -0.4149813,
          "distance_to_route": 0.88
        },
        {
          "id": "64202",
          "name": "Massanassa",
          "lat": 39.4091934,
          "lon": -0.3953073,
          "distance_to_route": 0.081
        },
        {
          "id": "64203",
          "name": "Alfafar-Benetússer",
          "lat": 39.4224232,
          "lon": -0.392605,
          "distance_to_route": 0.033
        },
        {
          "id": "65000",
          "name": "València-Estació Del Nord",
          "lat": 39.4669305,
          "lon": -0.3772239,
          "distance_to_route": 0.071
        }
      ],
      "route_desc": "Valencia Nord                           -Platja i Grau de Gandia"
    },
    "C2": {
      "color": "F79529",
      "stops": [
        {
          "id": "64003",
          "name": "Moixent",
          "lat": 38.8777975,
          "lon": -0.7536507,
          "distance_to_route": 0.032
        },
        {
          "id": "64004",
          "name": "Vallada",
          "lat": 38.9089907,
          "lon": -0.6902385,
          "distance_to_route": 0.017
        },
        {
          "id": "64005",
          "name": "Montesa",
          "lat": 38.9429388,
          "lon": -0.6410905,
          "distance_to_route": 0.024
        },
        {
          "id": "64006",
          "name": "L'alcúdia De Crespins",
          "lat": 38.9690579,
          "lon": -0.5866758,
          "distance_to_route": 0.013
        },
        {
          "id": "64100",
          "name": "Xàtiva",
          "lat": 38.992148,
          "lon": -0.5245402,
          "distance_to_route": 0.357
        },
        {
          "id": "64007",
          "name": "Lenova-Manuel",
          "lat": 39.0500727,
          "lon": -0.4776036,
          "distance_to_route": 0.024
        },
        {
          "id": "64102",
          "name": "La Pobla Llarga",
          "lat": 39.0833385,
          "lon": -0.4696592,
          "distance_to_route": 0.257
        },
        {
          "id": "64103",
          "name": "Carcaixent",
          "lat": 39.1205251,
          "lon": -0.4544102,
          "distance_to_route": 0.03
        },
        {
          "id": "64104",
          "name": "Alzira",
          "lat": 39.1531495,
          "lon": -0.4506011,
          "distance_to_route": 0.161
        },
        {
          "id": "64105",
          "name": "Algemesí",
          "lat": 39.1931484,
          "lon": -0.4409196,
          "distance_to_route": 0.034
        },
        {
          "id": "64107",
          "name": "Benifaió",
          "lat": 39.2843027,
          "lon": -0.4299537,
          "distance_to_route": 0.127
        },
        {
          "id": "64200",
          "name": "Silla",
          "lat": 39.3619548,
          "lon": -0.4149813,
          "distance_to_route": 0.02
        },
        {
          "id": "64210",
          "name": "Albal",
          "lat": 39.3918429,
          "lon": -0.4026343,
          "distance_to_route": 0.334
        },
        {
          "id": "64202",
          "name": "Massanassa",
          "lat": 39.4091934,
          "lon": -0.3953073,
          "distance_to_route": 0.081
        },
        {
          "id": "64203",
          "name": "Alfafar-Benetússer",
          "lat": 39.4224232,
          "lon": -0.392605,
          "distance_to_route": 0.033
        },
        {
          "id": "65000",
          "name": "València-Estació Del Nord",
          "lat": 39.4669305,
          "lon": -0.3772239,
          "distance_to_route": 0.071
        }
      ],
      "route_desc": "Valencia Nord                           -Moixent"
    },
    "C3": {
      "color": "7A2780",
      "stops": [
        {
          "id": "66200",
          "name": "Utiel",
          "lat": 39.5707742,
          "lon": -1.2024215,
          "distance_to_route": 0.018
        },
        {
          "id": "66201",
          "name": "San Antonio De Requena",
          "lat": 39.5222997,
          "lon": -1.150367,
          "distance_to_route": 0.375
        },
        {
          "id": "66202",
          "name": "Requena",
          "lat": 39.4912708,
          "lon": -1.1046578,
          "distance_to_route": 0.012
        },
        {
          "id": "66203",
          "name": "El Rebollar",
          "lat": 39.4773604,
          "lon": -1.0116025,
          "distance_to_route": 0.196
        },
        {
          "id": "66204",
          "name": "Siete Aguas",
          "lat": 39.4572264,
          "lon": -0.9025067,
          "distance_to_route": 0.012
        },
        {
          "id": "66206",
          "name": "Buñol",
          "lat": 39.427139,
          "lon": -0.7873638,
          "distance_to_route": 0.02
        },
        {
          "id": "66207",
          "name": "Chiva",
          "lat": 39.4711268,
          "lon": -0.7229414,
          "distance_to_route": 0.016
        },
        {
          "id": "66208",
          "name": "Cheste",
          "lat": 39.490903,
          "lon": -0.6862639,
          "distance_to_route": 0.364
        },
        {
          "id": "66210",
          "name": "Circuit Ricardo Tormo",
          "lat": 39.4954379,
          "lon": -0.6247545,
          "distance_to_route": 0.274
        },
        {
          "id": "66209",
          "name": "Loriguilla-Reva",
          "lat": 39.4857771,
          "lon": -0.5673983,
          "distance_to_route": 0.035
        },
        {
          "id": "66211",
          "name": "Aldaia",
          "lat": 39.4611179,
          "lon": -0.4632476,
          "distance_to_route": 0.424
        },
        {
          "id": "66214",
          "name": "Xirivella-Alqueries",
          "lat": 39.4626294,
          "lon": -0.432216,
          "distance_to_route": 0.025
        },
        {
          "id": "66212",
          "name": "València-Sant Isidre",
          "lat": 39.4502194,
          "lon": -0.4039788,
          "distance_to_route": 0.057
        },
        {
          "id": "65002",
          "name": "València-La Font De Sant Lluís",
          "lat": 39.4416052,
          "lon": -0.371422,
          "distance_to_route": 0.028
        },
        {
          "id": "65000",
          "name": "València-Estació Del Nord",
          "lat": 39.4669305,
          "lon": -0.3772239,
          "distance_to_route": 0.073
        }
      ],
      "route_desc": "Valencia Nord                           -Utiel"
    },
    "C5": {
      "color": "018A27",
      "stops": [
        {
          "id": "67211",
          "name": "Caudiel",
          "lat": 39.9473696,
          "lon": -0.5720537,
          "distance_to_route": 0.013
        },
        {
          "id": "67212",
          "name": "Jérica-Viver",
          "lat": 39.9149777,
          "lon": -0.5693896,
          "distance_to_route": 0.015
        },
        {
          "id": "67213",
          "name": "Navajas",
          "lat": 39.8744166,
          "lon": -0.5059546,
          "distance_to_route": 0.012
        },
        {
          "id": "67214",
          "name": "Segorbe-Arrabal",
          "lat": 39.854557,
          "lon": -0.493863,
          "distance_to_route": 0.018
        },
        {
          "id": "67215",
          "name": "Segorbe-Ciudad",
          "lat": 39.8471755,
          "lon": -0.4823544,
          "distance_to_route": 0.138
        },
        {
          "id": "67217",
          "name": "Soneja",
          "lat": 39.8126015,
          "lon": -0.4318206,
          "distance_to_route": 0.028
        },
        {
          "id": "67216",
          "name": "Algimia-Ciudad",
          "lat": 39.7529934,
          "lon": -0.3657542,
          "distance_to_route": 0.009
        },
        {
          "id": "67221",
          "name": "Estivella-Albalat Dels Tarongers",
          "lat": 39.706408,
          "lon": -0.348324,
          "distance_to_route": 0.294
        },
        {
          "id": "67223",
          "name": "Gilet",
          "lat": 39.6793985,
          "lon": -0.3206548,
          "distance_to_route": 0.129
        },
        {
          "id": "65200",
          "name": "Sagunt",
          "lat": 39.6758025,
          "lon": -0.271542,
          "distance_to_route": 0.011
        },
        {
          "id": "65008",
          "name": "Puçol",
          "lat": 39.6205367,
          "lon": -0.3031085,
          "distance_to_route": 0.03
        },
        {
          "id": "65007",
          "name": "El Puig",
          "lat": 39.588302,
          "lon": -0.3116645,
          "distance_to_route": 0.994
        },
        {
          "id": "65001",
          "name": "Roca-Cúper",
          "lat": 39.5262094,
          "lon": -0.3238405,
          "distance_to_route": 0.107
        },
        {
          "id": "65003",
          "name": "València-Cabanyal",
          "lat": 39.4702456,
          "lon": -0.3346772,
          "distance_to_route": 0.017
        },
        {
          "id": "65002",
          "name": "València-La Font De Sant Lluís",
          "lat": 39.4416052,
          "lon": -0.371422,
          "distance_to_route": 0.68
        },
        {
          "id": "65000",
          "name": "València-Estació Del Nord",
          "lat": 39.4669305,
          "lon": -0.3772239,
          "distance_to_route": 0.073
        }
      ],
      "route_desc": "Valencia Nord                           -Caudiel"
    },
    "C6": {
      "color": "0D3386",
      "stops": [
        {
          "id": "65300",
          "name": "Castelló De La Plana",
          "lat": 39.9884736,
          "lon": -0.0523456,
          "distance_to_route": 0.037
        },
        {
          "id": "65208",
          "name": "Vila-Real",
          "lat": 39.9330935,
          "lon": -0.0967681,
          "distance_to_route": 0.057
        },
        {
          "id": "65207",
          "name": "Burriana-Alquerías Niño Perdido",
          "lat": 39.8965088,
          "lon": -0.1038601,
          "distance_to_route": 0.04
        },
        {
          "id": "65206",
          "name": "Nules La Villavella",
          "lat": 39.8532354,
          "lon": -0.1527317,
          "distance_to_route": 0.029
        },
        {
          "id": "65205",
          "name": "Moncofa",
          "lat": 39.8208891,
          "lon": -0.1626965,
          "distance_to_route": 0.469
        },
        {
          "id": "65203",
          "name": "La Llosa",
          "lat": 39.7678109,
          "lon": -0.2029444,
          "distance_to_route": 0.652
        },
        {
          "id": "65202",
          "name": "Almenara",
          "lat": 39.7487737,
          "lon": -0.2183811,
          "distance_to_route": 0.27
        },
        {
          "id": "65200",
          "name": "Sagunt",
          "lat": 39.6758025,
          "lon": -0.271542,
          "distance_to_route": 0.057
        },
        {
          "id": "65008",
          "name": "Puçol",
          "lat": 39.6205367,
          "lon": -0.3031085,
          "distance_to_route": 0.423
        },
        {
          "id": "65007",
          "name": "El Puig",
          "lat": 39.588302,
          "lon": -0.3116645,
          "distance_to_route": 0.994
        },
        {
          "id": "65001",
          "name": "Roca-Cúper",
          "lat": 39.5262094,
          "lon": -0.3238405,
          "distance_to_route": 0.107
        },
        {
          "id": "65003",
          "name": "València-Cabanyal",
          "lat": 39.4702456,
          "lon": -0.3346772,
          "distance_to_route": 0.017
        },
        {
          "id": "65002",
          "name": "València-La Font De Sant Lluís",
          "lat": 39.4416052,
          "lon": -0.371422,
          "distance_to_route": 0.674
        },
        {
          "id": "65000",
          "name": "València-Estació Del Nord",
          "lat": 39.4669305,
          "lon": -0.3772239,
          "distance_to_route": 0.221
        }
      ],
      "route_desc": "Valencia Nord                           -Castello de la Plana"
    }
  },
  "BARCELONA": {
    "R1": {
      "color": "7DBCEC",
      "stops": [
        {
          "id": "72300",
          "name": "Molins De Rei",
          "lat": 41.4098958,
          "lon": 2.02077275,
          "distance_to_route": 0.011
        },
        {
          "id": "72301",
          "name": "Sant Feliu De Llobregat",
          "lat": 41.3830018,
          "lon": 2.0479197,
          "distance_to_route": 0.12
        },
        {
          "id": "72302",
          "name": "Sant Joan Despí",
          "lat": 41.3685805,
          "lon": 2.06020835,
          "distance_to_route": 0.417
        },
        {
          "id": "72303",
          "name": "Cornellà",
          "lat": 41.3575214,
          "lon": 2.07054907,
          "distance_to_route": 0.021
        },
        {
          "id": "72305",
          "name": "L'hospitalet De Llobregat",
          "lat": 41.3642038,
          "lon": 2.10091749,
          "distance_to_route": 0.117
        },
        {
          "id": "71801",
          "name": "Barcelona-Sants",
          "lat": 41.3798632,
          "lon": 2.14101688,
          "distance_to_route": 0.039
        },
        {
          "id": "71802",
          "name": "Barcelona-Passeig De Gràcia",
          "lat": 41.3920862,
          "lon": 2.16533862,
          "distance_to_route": 0.662
        },
        {
          "id": "78805",
          "name": "Barcelona-Plaça De Catalunya",
          "lat": 41.3879231,
          "lon": 2.16970383,
          "distance_to_route": 0.441
        },
        {
          "id": "79400",
          "name": "Barcelona Estació De França",
          "lat": 41.3844866,
          "lon": 2.18534785,
          "distance_to_route": 0.913
        },
        {
          "id": "78804",
          "name": "Barcelona-Arc De Triomf",
          "lat": 41.3919048,
          "lon": 2.18063916,
          "distance_to_route": 0.002
        },
        {
          "id": "79009",
          "name": "Barcelona-El Clot",
          "lat": 41.4092979,
          "lon": 2.18719759,
          "distance_to_route": 0.044
        },
        {
          "id": "78806",
          "name": "Barcelona-La Sagrera-Meridiana",
          "lat": 41.421848,
          "lon": 2.18711031,
          "distance_to_route": 0.625
        },
        {
          "id": "79004",
          "name": "Barcelona-Sant Andreu",
          "lat": 41.4361251,
          "lon": 2.19319866,
          "distance_to_route": 0.811
        },
        {
          "id": "79403",
          "name": "Sant Adrià De Besòs",
          "lat": 41.4244316,
          "lon": 2.23048178,
          "distance_to_route": 0.092
        },
        {
          "id": "79404",
          "name": "Badalona",
          "lat": 41.4458838,
          "lon": 2.24892096,
          "distance_to_route": 0.218
        },
        {
          "id": "79405",
          "name": "Montgat",
          "lat": 41.4630211,
          "lon": 2.2721551,
          "distance_to_route": 0.192
        },
        {
          "id": "79406",
          "name": "Montgat-Nord",
          "lat": 41.468786,
          "lon": 2.28669661,
          "distance_to_route": 0.087
        },
        {
          "id": "79407",
          "name": "El Masnou",
          "lat": 41.4770363,
          "lon": 2.3103772,
          "distance_to_route": 0.099
        },
        {
          "id": "79408",
          "name": "Ocata",
          "lat": 41.4790211,
          "lon": 2.31953267,
          "distance_to_route": 0.007
        },
        {
          "id": "79409",
          "name": "Premià De Mar",
          "lat": 41.4877522,
          "lon": 2.35485608,
          "distance_to_route": 0.022
        },
        {
          "id": "79410",
          "name": "Vilassar De Mar",
          "lat": 41.5006285,
          "lon": 2.38986104,
          "distance_to_route": 0.047
        },
        {
          "id": "79412",
          "name": "Cabrera De Mar-Vilassar De Mar",
          "lat": 41.5067718,
          "lon": 2.40162431,
          "distance_to_route": 0.044
        },
        {
          "id": "79500",
          "name": "Mataró",
          "lat": 41.5333852,
          "lon": 2.44553025,
          "distance_to_route": 0.252
        },
        {
          "id": "79501",
          "name": "Sant Andreu De Llavaneres",
          "lat": 41.5555467,
          "lon": 2.49826463,
          "distance_to_route": 0.299
        },
        {
          "id": "79502",
          "name": "Caldes D'estrac",
          "lat": 41.5686082,
          "lon": 2.52598143,
          "distance_to_route": 0.488
        },
        {
          "id": "79600",
          "name": "Arenys De Mar",
          "lat": 41.577699,
          "lon": 2.54933744,
          "distance_to_route": 0.093
        },
        {
          "id": "79601",
          "name": "Canet De Mar",
          "lat": 41.5866691,
          "lon": 2.58128887,
          "distance_to_route": 0.037
        },
        {
          "id": "79602",
          "name": "Sant Pol De Mar",
          "lat": 41.6017549,
          "lon": 2.62459756,
          "distance_to_route": 0.018
        },
        {
          "id": "79603",
          "name": "Calella",
          "lat": 41.6146911,
          "lon": 2.66599517,
          "distance_to_route": 0.022
        },
        {
          "id": "79604",
          "name": "Pineda De Mar",
          "lat": 41.6224449,
          "lon": 2.69355042,
          "distance_to_route": 0.053
        },
        {
          "id": "79608",
          "name": "Santa Susana",
          "lat": 41.6300971,
          "lon": 2.7159698,
          "distance_to_route": 0.013
        },
        {
          "id": "79605",
          "name": "Malgrat De Mar",
          "lat": 41.641602,
          "lon": 2.74127903,
          "distance_to_route": 0.102
        },
        {
          "id": "79606",
          "name": "Blanes",
          "lat": 41.6736157,
          "lon": 2.7692697,
          "distance_to_route": 0.025
        },
        {
          "id": "79607",
          "name": "Tordera",
          "lat": 41.7071687,
          "lon": 2.71957063,
          "distance_to_route": 0.247
        },
        {
          "id": "79200",
          "name": "Maçanet-Massanes",
          "lat": 41.7724212,
          "lon": 2.67385865,
          "distance_to_route": 0.029
        }
      ],
      "route_desc": "Molins de Rei                           -Maçanet-Massanes"
    },
    "R11": {
      "color": "0069AA",
      "stops": [
        {
          "id": "71801",
          "name": "Barcelona-Sants",
          "lat": 41.3798632,
          "lon": 2.14101688,
          "distance_to_route": 0.047
        },
        {
          "id": "71802",
          "name": "Barcelona-Passeig De Gràcia",
          "lat": 41.3920862,
          "lon": 2.16533862,
          "distance_to_route": 0.816
        },
        {
          "id": "78805",
          "name": "Barcelona-Plaça De Catalunya",
          "lat": 41.3879231,
          "lon": 2.16970383,
          "distance_to_route": 0.97
        },
        {
          "id": "78804",
          "name": "Barcelona-Arc De Triomf",
          "lat": 41.3919048,
          "lon": 2.18063916,
          "distance_to_route": 0.974
        },
        {
          "id": "79009",
          "name": "Barcelona-El Clot",
          "lat": 41.4092979,
          "lon": 2.18719759,
          "distance_to_route": 0.355
        },
        {
          "id": "78806",
          "name": "Barcelona-La Sagrera-Meridiana",
          "lat": 41.421848,
          "lon": 2.18711031,
          "distance_to_route": 0.571
        },
        {
          "id": "79004",
          "name": "Barcelona-Sant Andreu",
          "lat": 41.4361251,
          "lon": 2.19319866,
          "distance_to_route": 0.039
        },
        {
          "id": "78801",
          "name": "Torre Del Baró-Vallbona",
          "lat": 41.4609684,
          "lon": 2.18102036,
          "distance_to_route": 0.562
        },
        {
          "id": "78800",
          "name": "Montcada-Bifurcació",
          "lat": 41.4698402,
          "lon": 2.18001578,
          "distance_to_route": 0.582
        },
        {
          "id": "78708",
          "name": "Montcada I Reixac-Manresa",
          "lat": 41.4839402,
          "lon": 2.1854042,
          "distance_to_route": 0.335
        },
        {
          "id": "79005",
          "name": "Montcada I Reixac",
          "lat": 41.4842254,
          "lon": 2.1880892,
          "distance_to_route": 0.188
        },
        {
          "id": "77002",
          "name": "Montcada-Ripollet",
          "lat": 41.4968022,
          "lon": 2.18192841,
          "distance_to_route": 0.678
        },
        {
          "id": "79011",
          "name": "La Llagosta",
          "lat": 41.5104566,
          "lon": 2.19973279,
          "distance_to_route": 0.421
        },
        {
          "id": "79006",
          "name": "Mollet-Sant Fost",
          "lat": 41.5335634,
          "lon": 2.21766516,
          "distance_to_route": 0.218
        },
        {
          "id": "79100",
          "name": "Granollers-Centre",
          "lat": 41.5997447,
          "lon": 2.29126962,
          "distance_to_route": 0.831
        },
        {
          "id": "79109",
          "name": "Les Franqueses-Granollers Nord",
          "lat": 41.6172549,
          "lon": 2.2944318,
          "distance_to_route": 0.052
        },
        {
          "id": "77100",
          "name": "Les Franqueses Del Vallès",
          "lat": 41.6297885,
          "lon": 2.29516461,
          "distance_to_route": 0.572
        },
        {
          "id": "79101",
          "name": "Cardedeu",
          "lat": 41.6367012,
          "lon": 2.35626265,
          "distance_to_route": 0.045
        },
        {
          "id": "79102",
          "name": "Llinars Del Vallès",
          "lat": 41.6380367,
          "lon": 2.40445769,
          "distance_to_route": 0.02
        },
        {
          "id": "79103",
          "name": "Palautordera",
          "lat": 41.6719522,
          "lon": 2.45421488,
          "distance_to_route": 0.304
        },
        {
          "id": "79105",
          "name": "Gualba",
          "lat": 41.7181901,
          "lon": 2.53878373,
          "distance_to_route": 0.067
        },
        {
          "id": "79107",
          "name": "Hostalric",
          "lat": 41.747788,
          "lon": 2.63165011,
          "distance_to_route": 0.094
        },
        {
          "id": "79200",
          "name": "Maçanet-Massanes",
          "lat": 41.7724212,
          "lon": 2.67385865,
          "distance_to_route": 0.167
        },
        {
          "id": "79203",
          "name": "Caldes De Malavella",
          "lat": 41.84111,
          "lon": 2.80076692,
          "distance_to_route": 0.136
        },
        {
          "id": "79204",
          "name": "Riudellots",
          "lat": 41.896297,
          "lon": 2.81157037,
          "distance_to_route": 0.251
        },
        {
          "id": "79205",
          "name": "Fornells De La Selva",
          "lat": 41.935043,
          "lon": 2.80978324,
          "distance_to_route": 0.026
        },
        {
          "id": "79300",
          "name": "Girona",
          "lat": 41.9793629,
          "lon": 2.81693689,
          "distance_to_route": 0.233
        },
        {
          "id": "79301",
          "name": "Celrà",
          "lat": 42.0271984,
          "lon": 2.87490587,
          "distance_to_route": 0.018
        },
        {
          "id": "79302",
          "name": "Bordils-Juià",
          "lat": 42.0370568,
          "lon": 2.91529561,
          "distance_to_route": 0.109
        },
        {
          "id": "79303",
          "name": "Flaçà",
          "lat": 42.047477,
          "lon": 2.95740315,
          "distance_to_route": 0.059
        },
        {
          "id": "79304",
          "name": "Sant Jordi Desvalls",
          "lat": 42.0683023,
          "lon": 2.96447664,
          "distance_to_route": 0.449
        },
        {
          "id": "79305",
          "name": "Camallera",
          "lat": 42.1223297,
          "lon": 2.96536522,
          "distance_to_route": 0.526
        },
        {
          "id": "79306",
          "name": "Sant Miquel De Fluvià",
          "lat": 42.1721019,
          "lon": 2.98959828,
          "distance_to_route": 0.478
        },
        {
          "id": "79309",
          "name": "Figueres",
          "lat": 42.2651134,
          "lon": 2.96880074,
          "distance_to_route": 0.034
        },
        {
          "id": "79311",
          "name": "Vilajuïga",
          "lat": 42.3256691,
          "lon": 3.08754626,
          "distance_to_route": 0.394
        },
        {
          "id": "79312",
          "name": "Llançà",
          "lat": 42.3666194,
          "lon": 3.1489746,
          "distance_to_route": 0.176
        },
        {
          "id": "79314",
          "name": "Colera",
          "lat": 42.4068837,
          "lon": 3.15434316,
          "distance_to_route": 0.013
        },
        {
          "id": "79315",
          "name": "Portbou",
          "lat": 42.4245908,
          "lon": 3.15801841,
          "distance_to_route": 0.105
        },
        {
          "id": "79316",
          "name": "Cerbère",
          "lat": 42.441664,
          "lon": 3.16314935,
          "distance_to_route": 0.031
        }
      ],
      "route_desc": "Figueres                                -Barcelona-Sants"
    },
    "R14": {
      "color": "6C60A8",
      "stops": [
        {
          "id": "79400",
          "name": "Barcelona Estació De França",
          "lat": 41.3844866,
          "lon": 2.18534785,
          "distance_to_route": 0.033
        },
        {
          "id": "78804",
          "name": "Barcelona-Arc De Triomf",
          "lat": 41.3919048,
          "lon": 2.18063916,
          "distance_to_route": 0.825
        },
        {
          "id": "79009",
          "name": "Barcelona-El Clot",
          "lat": 41.4092979,
          "lon": 2.18719759,
          "distance_to_route": 0.766
        },
        {
          "id": "71802",
          "name": "Barcelona-Passeig De Gràcia",
          "lat": 41.3920862,
          "lon": 2.16533862,
          "distance_to_route": 0.816
        },
        {
          "id": "78805",
          "name": "Barcelona-Plaça De Catalunya",
          "lat": 41.3879231,
          "lon": 2.16970383,
          "distance_to_route": 0.97
        },
        {
          "id": "71801",
          "name": "Barcelona-Sants",
          "lat": 41.3798632,
          "lon": 2.14101688,
          "distance_to_route": 0.042
        },
        {
          "id": "71708",
          "name": "Bellvitge-Gornal",
          "lat": 41.3549216,
          "lon": 2.1152733,
          "distance_to_route": 0.162
        },
        {
          "id": "71707",
          "name": "El Prat De Llobregat",
          "lat": 41.3309401,
          "lon": 2.08934473,
          "distance_to_route": 0.007
        },
        {
          "id": "71706",
          "name": "Gavà",
          "lat": 41.3034722,
          "lon": 2.01053111,
          "distance_to_route": 0.03
        },
        {
          "id": "71705",
          "name": "Castelldefels",
          "lat": 41.2790474,
          "lon": 1.97915126,
          "distance_to_route": 0.289
        },
        {
          "id": "71704",
          "name": "Platja De Castelldefels",
          "lat": 41.2669823,
          "lon": 1.95713579,
          "distance_to_route": 0.079
        },
        {
          "id": "71703",
          "name": "Garraf",
          "lat": 41.2545875,
          "lon": 1.90250383,
          "distance_to_route": 0.06
        },
        {
          "id": "71701",
          "name": "Sitges",
          "lat": 41.2391315,
          "lon": 1.80969184,
          "distance_to_route": 0.009
        },
        {
          "id": "71700",
          "name": "Vilanova I La Geltrú",
          "lat": 41.2203207,
          "lon": 1.73077249,
          "distance_to_route": 0.056
        },
        {
          "id": "71604",
          "name": "Cubelles",
          "lat": 41.2043246,
          "lon": 1.6759772,
          "distance_to_route": 0.997
        },
        {
          "id": "71603",
          "name": "Cunit",
          "lat": 41.1950415,
          "lon": 1.63194242,
          "distance_to_route": 0.028
        },
        {
          "id": "71602",
          "name": "Segur De Calafell",
          "lat": 41.1925787,
          "lon": 1.60643599,
          "distance_to_route": 0.09
        },
        {
          "id": "71601",
          "name": "Calafell",
          "lat": 41.1896703,
          "lon": 1.57500937,
          "distance_to_route": 0.38
        },
        {
          "id": "71600",
          "name": "Sant Vicenç De Calders",
          "lat": 41.1862102,
          "lon": 1.52480358,
          "distance_to_route": 0.057
        },
        {
          "id": "71503",
          "name": "Torredembarra",
          "lat": 41.1427923,
          "lon": 1.40578377,
          "distance_to_route": 0.054
        },
        {
          "id": "71502",
          "name": "Altafulla-Tamarit",
          "lat": 41.1366479,
          "lon": 1.37341488,
          "distance_to_route": 0.021
        },
        {
          "id": "71500",
          "name": "Tarragona",
          "lat": 41.1115636,
          "lon": 1.25322776,
          "distance_to_route": 0.054
        },
        {
          "id": "71401",
          "name": "Vila-Seca",
          "lat": 41.1128193,
          "lon": 1.15037877,
          "distance_to_route": 0.024
        },
        {
          "id": "71400",
          "name": "Reus",
          "lat": 41.1605229,
          "lon": 1.10008978,
          "distance_to_route": 0.069
        },
        {
          "id": "73102",
          "name": "La Selva Del Camp",
          "lat": 41.2111544,
          "lon": 1.14396003,
          "distance_to_route": 0.066
        },
        {
          "id": "73101",
          "name": "Alcover",
          "lat": 41.2616066,
          "lon": 1.17416002,
          "distance_to_route": 0.337
        },
        {
          "id": "73100",
          "name": "La Plana-Picamoixons",
          "lat": 41.3061987,
          "lon": 1.19488293,
          "distance_to_route": 0.019
        },
        {
          "id": "73010",
          "name": "La Riba",
          "lat": 41.3184926,
          "lon": 1.1813126,
          "distance_to_route": 0.057
        },
        {
          "id": "73009",
          "name": "Vilaverd",
          "lat": 41.3376633,
          "lon": 1.17653235,
          "distance_to_route": 0.028
        },
        {
          "id": "73008",
          "name": "Montblanc",
          "lat": 41.3766254,
          "lon": 1.16554869,
          "distance_to_route": 0.066
        },
        {
          "id": "73007",
          "name": "L'espluga De Francolí",
          "lat": 41.4006616,
          "lon": 1.10336094,
          "distance_to_route": 0.047
        },
        {
          "id": "73006",
          "name": "Vimbodí I Poblet",
          "lat": 41.4027277,
          "lon": 1.04603327,
          "distance_to_route": 0.164
        },
        {
          "id": "73005",
          "name": "Vinaixa",
          "lat": 41.425141,
          "lon": 0.9703737,
          "distance_to_route": 0.088
        },
        {
          "id": "73004",
          "name": "La Floresta",
          "lat": 41.5048872,
          "lon": 0.9217547,
          "distance_to_route": 0.507
        },
        {
          "id": "73002",
          "name": "Juneda",
          "lat": 41.5439328,
          "lon": 0.82554185,
          "distance_to_route": 0.106
        },
        {
          "id": "73001",
          "name": "Puigverd De Lleida-Artesa",
          "lat": 41.5537015,
          "lon": 0.73342706,
          "distance_to_route": 0.699
        },
        {
          "id": "78400",
          "name": "Lleida-Pirineus",
          "lat": 41.62013,
          "lon": 0.63365328,
          "distance_to_route": 0.048
        }
      ],
      "route_desc": "La Plana-Picamoixons                    -Tarragona"
    },
    "R15": {
      "color": "978571",
      "stops": [
        {
          "id": "79400",
          "name": "Barcelona Estació De França",
          "lat": 41.3844866,
          "lon": 2.18534785,
          "distance_to_route": 0.04
        },
        {
          "id": "78804",
          "name": "Barcelona-Arc De Triomf",
          "lat": 41.3919048,
          "lon": 2.18063916,
          "distance_to_route": 0.825
        },
        {
          "id": "79009",
          "name": "Barcelona-El Clot",
          "lat": 41.4092979,
          "lon": 2.18719759,
          "distance_to_route": 0.766
        },
        {
          "id": "71802",
          "name": "Barcelona-Passeig De Gràcia",
          "lat": 41.3920862,
          "lon": 2.16533862,
          "distance_to_route": 0.816
        },
        {
          "id": "78805",
          "name": "Barcelona-Plaça De Catalunya",
          "lat": 41.3879231,
          "lon": 2.16970383,
          "distance_to_route": 0.97
        },
        {
          "id": "71801",
          "name": "Barcelona-Sants",
          "lat": 41.3798632,
          "lon": 2.14101688,
          "distance_to_route": 0.039
        },
        {
          "id": "71708",
          "name": "Bellvitge-Gornal",
          "lat": 41.3549216,
          "lon": 2.1152733,
          "distance_to_route": 0.164
        },
        {
          "id": "71707",
          "name": "El Prat De Llobregat",
          "lat": 41.3309401,
          "lon": 2.08934473,
          "distance_to_route": 0.007
        },
        {
          "id": "71706",
          "name": "Gavà",
          "lat": 41.3034722,
          "lon": 2.01053111,
          "distance_to_route": 0.03
        },
        {
          "id": "71705",
          "name": "Castelldefels",
          "lat": 41.2790474,
          "lon": 1.97915126,
          "distance_to_route": 0.289
        },
        {
          "id": "71704",
          "name": "Platja De Castelldefels",
          "lat": 41.2669823,
          "lon": 1.95713579,
          "distance_to_route": 0.079
        },
        {
          "id": "71703",
          "name": "Garraf",
          "lat": 41.2545875,
          "lon": 1.90250383,
          "distance_to_route": 0.06
        },
        {
          "id": "71701",
          "name": "Sitges",
          "lat": 41.2391315,
          "lon": 1.80969184,
          "distance_to_route": 0.009
        },
        {
          "id": "71700",
          "name": "Vilanova I La Geltrú",
          "lat": 41.2203207,
          "lon": 1.73077249,
          "distance_to_route": 0.056
        },
        {
          "id": "71604",
          "name": "Cubelles",
          "lat": 41.2043246,
          "lon": 1.6759772,
          "distance_to_route": 0.997
        },
        {
          "id": "71603",
          "name": "Cunit",
          "lat": 41.1950415,
          "lon": 1.63194242,
          "distance_to_route": 0.028
        },
        {
          "id": "71602",
          "name": "Segur De Calafell",
          "lat": 41.1925787,
          "lon": 1.60643599,
          "distance_to_route": 0.09
        },
        {
          "id": "71601",
          "name": "Calafell",
          "lat": 41.1896703,
          "lon": 1.57500937,
          "distance_to_route": 0.38
        },
        {
          "id": "71600",
          "name": "Sant Vicenç De Calders",
          "lat": 41.1862102,
          "lon": 1.52480358,
          "distance_to_route": 0.057
        },
        {
          "id": "71503",
          "name": "Torredembarra",
          "lat": 41.1427923,
          "lon": 1.40578377,
          "distance_to_route": 0.054
        },
        {
          "id": "71502",
          "name": "Altafulla-Tamarit",
          "lat": 41.1366479,
          "lon": 1.37341488,
          "distance_to_route": 0.021
        },
        {
          "id": "71500",
          "name": "Tarragona",
          "lat": 41.1115636,
          "lon": 1.25322776,
          "distance_to_route": 0.054
        },
        {
          "id": "71401",
          "name": "Vila-Seca",
          "lat": 41.1128193,
          "lon": 1.15037877,
          "distance_to_route": 0.016
        },
        {
          "id": "71400",
          "name": "Reus",
          "lat": 41.1605229,
          "lon": 1.10008978,
          "distance_to_route": 0.162
        },
        {
          "id": "71307",
          "name": "Les Borges Del Camp",
          "lat": 41.1665064,
          "lon": 1.0221323,
          "distance_to_route": 0.035
        },
        {
          "id": "71306",
          "name": "Riudecanyes-Botarell",
          "lat": 41.1400577,
          "lon": 0.97574775,
          "distance_to_route": 0.02
        },
        {
          "id": "71305",
          "name": "Duesaigües-L'argentera",
          "lat": 41.1436928,
          "lon": 0.92087096,
          "distance_to_route": 0.33
        },
        {
          "id": "71304",
          "name": "Pradell",
          "lat": 41.1333595,
          "lon": 0.85865032,
          "distance_to_route": 0.113
        },
        {
          "id": "71303",
          "name": "Marçà-Falset",
          "lat": 41.1309421,
          "lon": 0.81041774,
          "distance_to_route": 0.161
        },
        {
          "id": "71302",
          "name": "Capçanes",
          "lat": 41.1020902,
          "lon": 0.78036099,
          "distance_to_route": 0.056
        },
        {
          "id": "71300",
          "name": "Móra La Nova",
          "lat": 41.1065823,
          "lon": 0.65321819,
          "distance_to_route": 0.198
        },
        {
          "id": "71211",
          "name": "Ascó",
          "lat": 41.1823727,
          "lon": 0.56902524,
          "distance_to_route": 0.319
        },
        {
          "id": "71210",
          "name": "Flix",
          "lat": 41.2293651,
          "lon": 0.54010012,
          "distance_to_route": 0.222
        },
        {
          "id": "71209",
          "name": "Riba-Roja D'ebre",
          "lat": 41.2485594,
          "lon": 0.48103178,
          "distance_to_route": 0.015
        }
      ],
      "route_desc": "Riba-roja d'Ebre                        -Caspe"
    },
    "R16": {
      "color": "B52B46",
      "stops": [
        {
          "id": "79400",
          "name": "Barcelona Estació De França",
          "lat": 41.3844866,
          "lon": 2.18534785,
          "distance_to_route": 0.033
        },
        {
          "id": "78804",
          "name": "Barcelona-Arc De Triomf",
          "lat": 41.3919048,
          "lon": 2.18063916,
          "distance_to_route": 0.825
        },
        {
          "id": "79009",
          "name": "Barcelona-El Clot",
          "lat": 41.4092979,
          "lon": 2.18719759,
          "distance_to_route": 0.766
        },
        {
          "id": "71802",
          "name": "Barcelona-Passeig De Gràcia",
          "lat": 41.3920862,
          "lon": 2.16533862,
          "distance_to_route": 0.816
        },
        {
          "id": "78805",
          "name": "Barcelona-Plaça De Catalunya",
          "lat": 41.3879231,
          "lon": 2.16970383,
          "distance_to_route": 0.97
        },
        {
          "id": "71801",
          "name": "Barcelona-Sants",
          "lat": 41.3798632,
          "lon": 2.14101688,
          "distance_to_route": 0.039
        },
        {
          "id": "71708",
          "name": "Bellvitge-Gornal",
          "lat": 41.3549216,
          "lon": 2.1152733,
          "distance_to_route": 0.162
        },
        {
          "id": "71707",
          "name": "El Prat De Llobregat",
          "lat": 41.3309401,
          "lon": 2.08934473,
          "distance_to_route": 0.298
        },
        {
          "id": "71706",
          "name": "Gavà",
          "lat": 41.3034722,
          "lon": 2.01053111,
          "distance_to_route": 0.03
        },
        {
          "id": "71705",
          "name": "Castelldefels",
          "lat": 41.2790474,
          "lon": 1.97915126,
          "distance_to_route": 0.289
        },
        {
          "id": "71704",
          "name": "Platja De Castelldefels",
          "lat": 41.2669823,
          "lon": 1.95713579,
          "distance_to_route": 0.079
        },
        {
          "id": "71703",
          "name": "Garraf",
          "lat": 41.2545875,
          "lon": 1.90250383,
          "distance_to_route": 0.06
        },
        {
          "id": "71701",
          "name": "Sitges",
          "lat": 41.2391315,
          "lon": 1.80969184,
          "distance_to_route": 0.009
        },
        {
          "id": "71700",
          "name": "Vilanova I La Geltrú",
          "lat": 41.2203207,
          "lon": 1.73077249,
          "distance_to_route": 0.056
        },
        {
          "id": "71604",
          "name": "Cubelles",
          "lat": 41.2043246,
          "lon": 1.6759772,
          "distance_to_route": 0.997
        },
        {
          "id": "71603",
          "name": "Cunit",
          "lat": 41.1950415,
          "lon": 1.63194242,
          "distance_to_route": 0.028
        },
        {
          "id": "71602",
          "name": "Segur De Calafell",
          "lat": 41.1925787,
          "lon": 1.60643599,
          "distance_to_route": 0.09
        },
        {
          "id": "71601",
          "name": "Calafell",
          "lat": 41.1896703,
          "lon": 1.57500937,
          "distance_to_route": 0.38
        },
        {
          "id": "71600",
          "name": "Sant Vicenç De Calders",
          "lat": 41.1862102,
          "lon": 1.52480358,
          "distance_to_route": 0.057
        },
        {
          "id": "71503",
          "name": "Torredembarra",
          "lat": 41.1427923,
          "lon": 1.40578377,
          "distance_to_route": 0.054
        },
        {
          "id": "71502",
          "name": "Altafulla-Tamarit",
          "lat": 41.1366479,
          "lon": 1.37341488,
          "distance_to_route": 0.021
        },
        {
          "id": "71500",
          "name": "Tarragona",
          "lat": 41.1115636,
          "lon": 1.25322776,
          "distance_to_route": 0.054
        },
        {
          "id": "71401",
          "name": "Vila-Seca",
          "lat": 41.1128193,
          "lon": 1.15037877,
          "distance_to_route": 0.024
        },
        {
          "id": "65422",
          "name": "Cambrils",
          "lat": 41.0815642,
          "lon": 1.04603752,
          "distance_to_route": 0.127
        },
        {
          "id": "65420",
          "name": "L'hospitalet De L'infant",
          "lat": 40.99939,
          "lon": 0.91253887,
          "distance_to_route": 0.059
        },
        {
          "id": "65405",
          "name": "L'ametlla De Mar",
          "lat": 40.8862,
          "lon": 0.80045321,
          "distance_to_route": 0.451
        },
        {
          "id": "65404",
          "name": "L'ampolla-El Perelló-Deltebre",
          "lat": 40.8119898,
          "lon": 0.70826336,
          "distance_to_route": 0.028
        },
        {
          "id": "65403",
          "name": "Camarles-Deltebre",
          "lat": 40.7747633,
          "lon": 0.67176095,
          "distance_to_route": 0.08
        },
        {
          "id": "65400",
          "name": "Tortosa",
          "lat": 40.807333,
          "lon": 0.5230136,
          "distance_to_route": 0.02
        },
        {
          "id": "65401",
          "name": "Camp-Redó",
          "lat": 40.7591556,
          "lon": 0.55584433,
          "distance_to_route": 0.039
        },
        {
          "id": "65402",
          "name": "L'aldea-Amposta-Tortosa",
          "lat": 40.753564,
          "lon": 0.61430923,
          "distance_to_route": 0.586
        },
        {
          "id": "65314",
          "name": "Ulldecona-Alcanar-La Sénia",
          "lat": 40.5959267,
          "lon": 0.44927448,
          "distance_to_route": 0.028
        }
      ],
      "route_desc": "Tortosa                                 -Barcelona-Estació de França"
    },
    "R17": {
      "color": "F3B12E",
      "stops": [
        {
          "id": "79400",
          "name": "Barcelona Estació De França",
          "lat": 41.3844866,
          "lon": 2.18534785,
          "distance_to_route": 0.033
        },
        {
          "id": "78804",
          "name": "Barcelona-Arc De Triomf",
          "lat": 41.3919048,
          "lon": 2.18063916,
          "distance_to_route": 0.825
        },
        {
          "id": "79009",
          "name": "Barcelona-El Clot",
          "lat": 41.4092979,
          "lon": 2.18719759,
          "distance_to_route": 0.766
        },
        {
          "id": "71802",
          "name": "Barcelona-Passeig De Gràcia",
          "lat": 41.3920862,
          "lon": 2.16533862,
          "distance_to_route": 0.816
        },
        {
          "id": "78805",
          "name": "Barcelona-Plaça De Catalunya",
          "lat": 41.3879231,
          "lon": 2.16970383,
          "distance_to_route": 0.97
        },
        {
          "id": "71801",
          "name": "Barcelona-Sants",
          "lat": 41.3798632,
          "lon": 2.14101688,
          "distance_to_route": 0.039
        },
        {
          "id": "71708",
          "name": "Bellvitge-Gornal",
          "lat": 41.3549216,
          "lon": 2.1152733,
          "distance_to_route": 0.162
        },
        {
          "id": "71707",
          "name": "El Prat De Llobregat",
          "lat": 41.3309401,
          "lon": 2.08934473,
          "distance_to_route": 0.298
        },
        {
          "id": "71706",
          "name": "Gavà",
          "lat": 41.3034722,
          "lon": 2.01053111,
          "distance_to_route": 0.03
        },
        {
          "id": "71705",
          "name": "Castelldefels",
          "lat": 41.2790474,
          "lon": 1.97915126,
          "distance_to_route": 0.289
        },
        {
          "id": "71704",
          "name": "Platja De Castelldefels",
          "lat": 41.2669823,
          "lon": 1.95713579,
          "distance_to_route": 0.079
        },
        {
          "id": "71703",
          "name": "Garraf",
          "lat": 41.2545875,
          "lon": 1.90250383,
          "distance_to_route": 0.06
        },
        {
          "id": "71701",
          "name": "Sitges",
          "lat": 41.2391315,
          "lon": 1.80969184,
          "distance_to_route": 0.009
        },
        {
          "id": "71700",
          "name": "Vilanova I La Geltrú",
          "lat": 41.2203207,
          "lon": 1.73077249,
          "distance_to_route": 0.056
        },
        {
          "id": "71604",
          "name": "Cubelles",
          "lat": 41.2043246,
          "lon": 1.6759772,
          "distance_to_route": 0.997
        },
        {
          "id": "71603",
          "name": "Cunit",
          "lat": 41.1950415,
          "lon": 1.63194242,
          "distance_to_route": 0.028
        },
        {
          "id": "71602",
          "name": "Segur De Calafell",
          "lat": 41.1925787,
          "lon": 1.60643599,
          "distance_to_route": 0.09
        },
        {
          "id": "71601",
          "name": "Calafell",
          "lat": 41.1896703,
          "lon": 1.57500937,
          "distance_to_route": 0.38
        },
        {
          "id": "71600",
          "name": "Sant Vicenç De Calders",
          "lat": 41.1862102,
          "lon": 1.52480358,
          "distance_to_route": 0.057
        },
        {
          "id": "71503",
          "name": "Torredembarra",
          "lat": 41.1427923,
          "lon": 1.40578377,
          "distance_to_route": 0.054
        },
        {
          "id": "71502",
          "name": "Altafulla-Tamarit",
          "lat": 41.1366479,
          "lon": 1.37341488,
          "distance_to_route": 0.034
        },
        {
          "id": "71500",
          "name": "Tarragona",
          "lat": 41.1115636,
          "lon": 1.25322776,
          "distance_to_route": 0.054
        },
        {
          "id": "65411",
          "name": "Salou-Port Aventura",
          "lat": 41.0884798,
          "lon": 1.14605195,
          "distance_to_route": 0.016
        }
      ],
      "route_desc": "Salou-Port Aventura                     -Barcelona-Estació de França"
    },
    "R2": {
      "color": "26A741",
      "stops": [
        {
          "id": "71705",
          "name": "Castelldefels",
          "lat": 41.2790474,
          "lon": 1.97915126,
          "distance_to_route": 0.214
        },
        {
          "id": "71706",
          "name": "Gavà",
          "lat": 41.3034722,
          "lon": 2.01053111,
          "distance_to_route": 0.042
        },
        {
          "id": "71707",
          "name": "El Prat De Llobregat",
          "lat": 41.3309401,
          "lon": 2.08934473,
          "distance_to_route": 0.007
        },
        {
          "id": "71708",
          "name": "Bellvitge-Gornal",
          "lat": 41.3549216,
          "lon": 2.1152733,
          "distance_to_route": 0.049
        },
        {
          "id": "71801",
          "name": "Barcelona-Sants",
          "lat": 41.3798632,
          "lon": 2.14101688,
          "distance_to_route": 0.043
        },
        {
          "id": "71802",
          "name": "Barcelona-Passeig De Gràcia",
          "lat": 41.3920862,
          "lon": 2.16533862,
          "distance_to_route": 0.792
        },
        {
          "id": "78805",
          "name": "Barcelona-Plaça De Catalunya",
          "lat": 41.3879231,
          "lon": 2.16970383,
          "distance_to_route": 0.952
        },
        {
          "id": "79009",
          "name": "Barcelona-El Clot",
          "lat": 41.4092979,
          "lon": 2.18719759,
          "distance_to_route": 0.14
        },
        {
          "id": "78806",
          "name": "Barcelona-La Sagrera-Meridiana",
          "lat": 41.421848,
          "lon": 2.18711031,
          "distance_to_route": 0.571
        },
        {
          "id": "78802",
          "name": "Fabra I Puig",
          "lat": 41.4303481,
          "lon": 2.18332907,
          "distance_to_route": 0.993
        },
        {
          "id": "79004",
          "name": "Barcelona-Sant Andreu",
          "lat": 41.4361251,
          "lon": 2.19319866,
          "distance_to_route": 0.027
        },
        {
          "id": "78801",
          "name": "Torre Del Baró-Vallbona",
          "lat": 41.4609684,
          "lon": 2.18102036,
          "distance_to_route": 0.562
        },
        {
          "id": "78800",
          "name": "Montcada-Bifurcació",
          "lat": 41.4698402,
          "lon": 2.18001578,
          "distance_to_route": 0.582
        },
        {
          "id": "78708",
          "name": "Montcada I Reixac-Manresa",
          "lat": 41.4839402,
          "lon": 2.1854042,
          "distance_to_route": 0.335
        },
        {
          "id": "79005",
          "name": "Montcada I Reixac",
          "lat": 41.4842254,
          "lon": 2.1880892,
          "distance_to_route": 0.188
        },
        {
          "id": "77002",
          "name": "Montcada-Ripollet",
          "lat": 41.4968022,
          "lon": 2.18192841,
          "distance_to_route": 0.679
        },
        {
          "id": "79006",
          "name": "Mollet-Sant Fost",
          "lat": 41.5335634,
          "lon": 2.21766516,
          "distance_to_route": 0.77
        },
        {
          "id": "79100",
          "name": "Granollers-Centre",
          "lat": 41.5997447,
          "lon": 2.29126962,
          "distance_to_route": 0.05
        }
      ],
      "route_desc": "Sant Vicenc de Calders                  -Maçanet-Massanes"
    },
    "R2N": {
      "color": "D0DF00",
      "stops": [
        {
          "id": "72400",
          "name": "El Prat Aeroport",
          "lat": 41.3041813,
          "lon": 2.07340133,
          "distance_to_route": 0.024
        },
        {
          "id": "71707",
          "name": "El Prat De Llobregat",
          "lat": 41.3309401,
          "lon": 2.08934473,
          "distance_to_route": 0.298
        },
        {
          "id": "71708",
          "name": "Bellvitge-Gornal",
          "lat": 41.3549216,
          "lon": 2.1152733,
          "distance_to_route": 0.162
        },
        {
          "id": "71801",
          "name": "Barcelona-Sants",
          "lat": 41.3798632,
          "lon": 2.14101688,
          "distance_to_route": 0.039
        },
        {
          "id": "71802",
          "name": "Barcelona-Passeig De Gràcia",
          "lat": 41.3920862,
          "lon": 2.16533862,
          "distance_to_route": 0.816
        },
        {
          "id": "78805",
          "name": "Barcelona-Plaça De Catalunya",
          "lat": 41.3879231,
          "lon": 2.16970383,
          "distance_to_route": 0.97
        },
        {
          "id": "78804",
          "name": "Barcelona-Arc De Triomf",
          "lat": 41.3919048,
          "lon": 2.18063916,
          "distance_to_route": 0.974
        },
        {
          "id": "79009",
          "name": "Barcelona-El Clot",
          "lat": 41.4092979,
          "lon": 2.18719759,
          "distance_to_route": 0.355
        },
        {
          "id": "78806",
          "name": "Barcelona-La Sagrera-Meridiana",
          "lat": 41.421848,
          "lon": 2.18711031,
          "distance_to_route": 0.571
        },
        {
          "id": "79004",
          "name": "Barcelona-Sant Andreu",
          "lat": 41.4361251,
          "lon": 2.19319866,
          "distance_to_route": 0.039
        },
        {
          "id": "78801",
          "name": "Torre Del Baró-Vallbona",
          "lat": 41.4609684,
          "lon": 2.18102036,
          "distance_to_route": 0.562
        },
        {
          "id": "78800",
          "name": "Montcada-Bifurcació",
          "lat": 41.4698402,
          "lon": 2.18001578,
          "distance_to_route": 0.582
        },
        {
          "id": "78708",
          "name": "Montcada I Reixac-Manresa",
          "lat": 41.4839402,
          "lon": 2.1854042,
          "distance_to_route": 0.335
        },
        {
          "id": "79005",
          "name": "Montcada I Reixac",
          "lat": 41.4842254,
          "lon": 2.1880892,
          "distance_to_route": 0.188
        },
        {
          "id": "77002",
          "name": "Montcada-Ripollet",
          "lat": 41.4968022,
          "lon": 2.18192841,
          "distance_to_route": 0.678
        },
        {
          "id": "79011",
          "name": "La Llagosta",
          "lat": 41.5104566,
          "lon": 2.19973279,
          "distance_to_route": 0.421
        },
        {
          "id": "79006",
          "name": "Mollet-Sant Fost",
          "lat": 41.5335634,
          "lon": 2.21766516,
          "distance_to_route": 0.218
        },
        {
          "id": "79109",
          "name": "Les Franqueses-Granollers Nord",
          "lat": 41.6172549,
          "lon": 2.2944318,
          "distance_to_route": 0.044
        },
        {
          "id": "77100",
          "name": "Les Franqueses Del Vallès",
          "lat": 41.6297885,
          "lon": 2.29516461,
          "distance_to_route": 0.572
        },
        {
          "id": "79101",
          "name": "Cardedeu",
          "lat": 41.6367012,
          "lon": 2.35626265,
          "distance_to_route": 0.045
        },
        {
          "id": "79102",
          "name": "Llinars Del Vallès",
          "lat": 41.6380367,
          "lon": 2.40445769,
          "distance_to_route": 0.02
        },
        {
          "id": "79103",
          "name": "Palautordera",
          "lat": 41.6719522,
          "lon": 2.45421488,
          "distance_to_route": 0.324
        },
        {
          "id": "79105",
          "name": "Gualba",
          "lat": 41.7181901,
          "lon": 2.53878373,
          "distance_to_route": 0.061
        },
        {
          "id": "79106",
          "name": "Riells I Viabrea-Breda",
          "lat": 41.7263582,
          "lon": 2.56889584,
          "distance_to_route": 0.653
        },
        {
          "id": "79107",
          "name": "Hostalric",
          "lat": 41.747788,
          "lon": 2.63165011,
          "distance_to_route": 0.153
        },
        {
          "id": "79200",
          "name": "Maçanet-Massanes",
          "lat": 41.7724212,
          "lon": 2.67385865,
          "distance_to_route": 0.025
        }
      ],
      "route_desc": "Aeroport                                -Maçanet-Massanes"
    },
    "R2S": {
      "color": "146520",
      "stops": [
        {
          "id": "71600",
          "name": "Sant Vicenç De Calders",
          "lat": 41.1862102,
          "lon": 1.52480358,
          "distance_to_route": 0.018
        },
        {
          "id": "71601",
          "name": "Calafell",
          "lat": 41.1896703,
          "lon": 1.57500937,
          "distance_to_route": 0.38
        },
        {
          "id": "71602",
          "name": "Segur De Calafell",
          "lat": 41.1925787,
          "lon": 1.60643599,
          "distance_to_route": 0.09
        },
        {
          "id": "71603",
          "name": "Cunit",
          "lat": 41.1950415,
          "lon": 1.63194242,
          "distance_to_route": 0.028
        },
        {
          "id": "71604",
          "name": "Cubelles",
          "lat": 41.2043246,
          "lon": 1.6759772,
          "distance_to_route": 0.997
        },
        {
          "id": "71700",
          "name": "Vilanova I La Geltrú",
          "lat": 41.2203207,
          "lon": 1.73077249,
          "distance_to_route": 0.056
        },
        {
          "id": "71701",
          "name": "Sitges",
          "lat": 41.2391315,
          "lon": 1.80969184,
          "distance_to_route": 0.009
        },
        {
          "id": "71703",
          "name": "Garraf",
          "lat": 41.2545875,
          "lon": 1.90250383,
          "distance_to_route": 0.06
        },
        {
          "id": "71704",
          "name": "Platja De Castelldefels",
          "lat": 41.2669823,
          "lon": 1.95713579,
          "distance_to_route": 0.079
        },